[{"name":"HowStuffWorks","total_money_raised":"$75M","address1":"3350 Peachtree Road, Suite 1500","city":"Atlanta","latitude":37.09024,"longitude":-95.712891},{"name":"Zipcar","total_money_raised":"$60.7M","address1":"1157 West Peachtree Street","city":"NW Atlanta","latitude":33.7862629,"longitude":-84.3877936},{"name":"Vertical Acuity","total_money_raised":"$6.08M","address1":"2859 Paces Ferry West","city":"Atlanta","latitude":33.8656817,"longitude":-84.4709443},{"name":"Google","total_money_raised":"$555M","address1":"10 10th Street NE","city":"Atlanta","latitude":33.781466,"longitude":-84.387519},{"name":"EnerTech Environmental","total_money_raised":"$42M","address1":"675 Seminole Ave","city":"Atlanta","latitude":33.7726102,"longitude":-84.3507414},{"name":"Silverpop","total_money_raised":"$40M","address1":"200 Galleria Parkway","city":"Atlanta","latitude":33.882526,"longitude":-84.4655151},{"name":"Dayforce","total_money_raised":"$40M","address1":"3325 Paddocks Parkway","city":"Atlanta","latitude":33.887619,"longitude":-84.710865},{"name":"Purewire","total_money_raised":"$4.75M","address1":"14 Piedmont Center NE","city":"Atlanta","latitude":33.852384,"longitude":-84.380568},{"name":"Purewire","total_money_raised":"$4.75M","address1":"14 Piedmont Center NE","city":"Atlanta","latitude":33.852384,"longitude":-84.380568},{"name":"Vitrue","total_money_raised":"$33M","address1":"101 Marietta Street","city":"Atlanta","latitude":33.756806,"longitude":-84.392198},{"name":"OfferWire","total_money_raised":"$3.5M","address1":"555 North Point Center","city":"Atlanta","latitude":34.046788,"longitude":-84.300914},{"name":"Iconic Therapeutics","total_money_raised":"$2.5M","address1":"127 Peachtree Street, N.E.,","city":"Atlanta","latitude":33.756855,"longitude":-84.387899},{"name":"Sapient","total_money_raised":"$2.4M","address1":"3630 Peachtree Street","city":"Atlanta","latitude":33.8540338,"longitude":-84.3584803},{"name":"LivePerson","total_money_raised":"$2.3M","address1":"2859 Paces Ferry Road NW","city":"Atlanta","latitude":33.8656817,"longitude":-84.4709443},{"name":"GlobalCrypto","total_money_raised":"$1M","address1":"75 5th Street NW","city":"Atlanta","latitude":33.776834,"longitude":-84.3895875},{"name":"Vocalocity","total_money_raised":"$17.1M","address1":"1375 Peachtree Street NE","city":"Atlanta","latitude":33.7812614,"longitude":-84.3675617},{"name":"Prenova","total_money_raised":"$15.7M","address1":"400 Northridge Rd.,","city":"Atlanta","latitude":33.982967,"longitude":-84.346041},{"name":"FTRANS","total_money_raised":"$14.1M","address1":"75 Fifth Street","city":"Atlanta,","latitude":33.7761977,"longitude":-84.385257},{"name":"LoopFuse","total_money_raised":"$1.4M","address1":"2100 Riveredge Parkway, Suite 700","city":"Atlanta","latitude":33.909439,"longitude":-84.44041}]